{
    "data": [
        {
            "name": "Lokmanpur",
            "lat": 24.2813291,
            "long": 88.9335684
        },
        {
            "name": "Natore",
            "lat": 24.4107459,
            "long": 88.9663625
        },
        {
            "name": "Kankina",
            "lat": 25.9560799,
            "long": 89.24172659999999
        },
        {
            "name": "Shahid Nagar",
            "lat": 24.6305909,
            "long": 89.83125899999999
        },
        {
            "name": "Chhatak",
            "lat": 25.0287154,
            "long": 91.65647760000002
        },
        {
            "name": "Shahagola",
            "lat": 24.6794455,
            "long": 88.97555169999998
        },
        {
            "name": "Gangasagar",
            "lat": 23.8302821,
            "long": 91.1958497
        },
        {
            "name": "Jamalganj",
            "lat": 25.0305218,
            "long": 89.02195180000001
        },
        {
            "name": "Munshiganj",
            "lat": 23.7164947,
            "long": 88.89406459999998
        },
        {
            "name": "Talora",
            "lat": 24.8239375,
            "long": 89.17854990000001
        },
        {
            "name": "Faridpur",
            "lat": 23.611034,
            "long": 89.84260310000002
        },
        {
            "name": "Dhuldi",
            "lat": 23.6202164,
            "long": 89.77276590000002
        },
        {
            "name": "Chapai Nawabganj",
            "lat": 24.5988158,
            "long": 88.2803419
        },
        {
            "name": "Nachole",
            "lat": 24.7247538,
            "long": 88.4024828
        },
        {
            "name": "Kaunia",
            "lat": 25.7780575,
            "long": 89.42336369999998
        },
        {
            "name": "Safdarpur",
            "lat": 23.462507,
            "long": 88.96151730000003
        },
        {
            "name": "Sardah_Road",
            "lat": 24.3372163,
            "long": 88.7526636
        },
        {
            "name": "Ghorashal",
            "lat": 23.9404514,
            "long": 90.6197823
        },
        {
            "name": "Naliagram",
            "lat": 23.6025455,
            "long": 89.60571579999998
        },
        {
            "name": "Talshahar",
            "lat": 24.0104344,
            "long": 91.03795559999998
        },
        {
            "name": "Ishwarganj",
            "lat": 24.6917112,
            "long": 90.60355390000001
        },
        {
            "name": "Mukundapur",
            "lat": 23.9635607,
            "long": 91.26470119999999
        },
        {
            "name": "Abdulpur",
            "lat": 24.2597373,
            "long": 88.9716437
        },
        {
            "name": "Shyampur",
            "lat": 25.7071531,
            "long": 89.1808158
        },
        {
            "name": "Dhalarchar",
            "lat": 23.834756,
            "long": 89.67112500000002
        },
        {
            "name": "Trimohony",
            "lat": 25.2820285,
            "long": 89.54293869999998
        },
        {
            "name": "Arkandi",
            "lat": 23.6388523,
            "long": 89.58005830000002
        },
        {
            "name": "Sararchar",
            "lat": 24.2185017,
            "long": 90.9009317
        },
        {
            "name": "Choumuhani",
            "lat": 22.9439811,
            "long": 91.12081039999998
        },
        {
            "name": "Talma",
            "lat": 23.4903649,
            "long": 89.87673160000003
        },
        {
            "name": "Hasanganj",
            "lat": 25.5717702,
            "long": 89.430118
        },
        {
            "name": "Kumira",
            "lat": 22.5049885,
            "long": 91.7160773
        },
        {
            "name": "Sitakunda",
            "lat": 22.6236065,
            "long": 91.66028469999998
        },
        {
            "name": "Maijgaon",
            "lat": 24.6861725,
            "long": 91.95140149999997
        },
        {
            "name": "Mohanganj",
            "lat": 24.8707027,
            "long": 90.97312149999999
        },
        {
            "name": "Patgram",
            "lat": 26.3437354,
            "long": 89.02135800000002
        },
        {
            "name": "Meherullah Nagar",
            "lat": 23.2166481,
            "long": 89.1639227
        },
        {
            "name": "Amirabad",
            "lat": 23.6397606,
            "long": 89.7443978
        },
        {
            "name": "Kashiani",
            "lat": 23.2333819,
            "long": 89.7252077
        },
        {
            "name": "Naldanga Hat",
            "lat": 24.5023348,
            "long": 88.9592265
        },
        {
            "name": "BBSetu_W",
            "lat": 24.3961931,
            "long": 89.7336642
        },
        {
            "name": "SH M Monsur Ali",
            "lat": 24.3973519,
            "long": 89.6902295
        },
        {
            "name": "Phultala",
            "lat": 22.9508714,
            "long": 89.47460139999998
        },
        {
            "name": "Surjanagar",
            "lat": 23.7736858,
            "long": 89.59707320000001
        },
        {
            "name": "Ashuganj",
            "lat": 24.03822,
            "long": 91.00162979999999
        },
        {
            "name": "Kuliarchar",
            "lat": 24.1510039,
            "long": 90.9285749
        },
        {
            "name": "Guakhra",
            "lat": 24.2004917,
            "long": 89.3220202
        },
        {
            "name": "Shamshernagar",
            "lat": 24.3829348,
            "long": 91.90031219999997
        },
        {
            "name": "Faujdarhat",
            "lat": 22.4106541,
            "long": 91.75572039999997
        },
        {
            "name": "Akhaura",
            "lat": 23.8700447,
            "long": 91.20553280000001
        },
        {
            "name": "Azampur",
            "lat": 23.8926605,
            "long": 91.22071570000003
        },
        {
            "name": "Mirpur",
            "lat": 23.9415435,
            "long": 88.99700580000001
        },
        {
            "name": "Shibganj",
            "lat": 25.998224,
            "long": 88.40361789999997
        },
        {
            "name": "BBSetu_E",
            "lat": 24.3895922,
            "long": 89.82018040000003
        },
        {
            "name": "Piyarpur",
            "lat": 24.8791748,
            "long": 90.19671749999998
        },
        {
            "name": "Tongi",
            "lat": 23.8985263,
            "long": 90.4086313
        },
        {
            "name": "Sonaimuri",
            "lat": 23.0440392,
            "long": 91.0985336
        },
        {
            "name": "Fulbari",
            "lat": 25.495482,
            "long": 88.96898779999998
        },
        {
            "name": "Ahsanganj",
            "lat": 24.6138488,
            "long": 88.9751344
        },
        {
            "name": "Sohosrail",
            "lat": 23.3235627,
            "long": 89.718412
        },
        {
            "name": "Gabtali",
            "lat": 24.8831991,
            "long": 89.45022920000002
        },
        {
            "name": "Tarakandi",
            "lat": 24.6856985,
            "long": 89.82444570000001
        },
        {
            "name": "Badiakhali",
            "lat": 25.2363097,
            "long": 89.54267320000002
        },
        {
            "name": "Bashpur",
            "lat": 23.2775855,
            "long": 89.7554748
        },
        {
            "name": "Bhangura",
            "lat": 24.2108595,
            "long": 89.3643159
        },
        {
            "name": "Gobra",
            "lat": 22.9479082,
            "long": 89.82905290000002
        },
        {
            "name": "Bhatshala",
            "lat": 23.8910646,
            "long": 91.17186329999998
        },
        {
            "name": "Chandpur",
            "lat": 23.2306594,
            "long": 90.64307789999998
        },
        {
            "name": "Gopalganj",
            "lat": 23.0340799,
            "long": 89.84010169999999
        },
        {
            "name": "Choto Bahirbag",
            "lat": 23.1408214,
            "long": 89.781725
        },
        {
            "name": "Tilakpur",
            "lat": 24.8768242,
            "long": 89.00180410000002
        },
        {
            "name": "Gafurabad",
            "lat": 24.1785502,
            "long": 89.2196837
        },
        {
            "name": "Noapara",
            "lat": 23.0332973,
            "long": 89.39538879999998
        },
        {
            "name": "Mirsarai",
            "lat": 22.7537673,
            "long": 91.59815509999999
        },
        {
            "name": "Kauga",
            "lat": 25.619042,
            "long": 88.70630110000002
        },
        {
            "name": "Meher",
            "lat": 23.2451262,
            "long": 90.94331360000001
        },
        {
            "name": "Kumarkhali",
            "lat": 23.8604802,
            "long": 89.24092630000001
        },
        {
            "name": "Chandradighalia",
            "lat": 23.0735392,
            "long": 89.7768792
        },
        {
            "name": "Maijdi Court",
            "lat": 22.8607221,
            "long": 91.10504329999998
        },
        {
            "name": "Pirgacha",
            "lat": 25.659332,
            "long": 89.40762660000001
        },
        {
            "name": "Gaidghat",
            "lat": 23.6397539,
            "long": 88.85649649999999
        },
        {
            "name": "Lalmai",
            "lat": 23.3563328,
            "long": 91.15172869999998
        },
        {
            "name": "Uthali",
            "lat": 23.492449,
            "long": 88.84517490000002
        },
        {
            "name": "Tebunia",
            "lat": 24.0742047,
            "long": 89.20624959999998
        },
        {
            "name": "Khulna",
            "lat": 22.8205952,
            "long": 89.55768979999999
        },
        {
            "name": "Bahadurabad_Ghat",
            "lat": 25.1663216,
            "long": 89.7354972
        },
        {
            "name": "Chattogram",
            "lat": 22.3340773,
            "long": 91.82969300000002
        },
        {
            "name": "Tejgaon",
            "lat": 23.7621684,
            "long": 90.3952401
        },
        {
            "name": "Biman_Bandar",
            "lat": 23.8520068,
            "long": 90.4083154
        },
        {
            "name": "Jhikargacha",
            "lat": 23.0994123,
            "long": 89.10099969999999
        },
        {
            "name": "Ambikapur",
            "lat": 23.610128,
            "long": 89.81895839999999
        },
        {
            "name": "Sharatnagar",
            "lat": 24.2226623,
            "long": 89.4067927
        },
        {
            "name": "Kanchan",
            "lat": 25.6235356,
            "long": 88.59977850000001
        },
        {
            "name": "Chilahati",
            "lat": 26.2431526,
            "long": 88.79644780000001
        },
        {
            "name": "Tantibandha",
            "lat": 23.975064,
            "long": 89.40946020000001
        },
        {
            "name": "Bakunda",
            "lat": 23.5456751,
            "long": 89.8601448
        },
        {
            "name": "Kaibalyadham",
            "lat": 22.3677111,
            "long": 91.78158059999998
        },
        {
            "name": "Mogla_Bazar",
            "lat": 24.7975684,
            "long": 91.91026499999998
        },
        {
            "name": "Muhuriganj",
            "lat": 22.9383689,
            "long": 91.51488669999998
        },
        {
            "name": "Parbatipur",
            "lat": 25.6530745,
            "long": 88.9158243
        },
        {
            "name": "Sukhanpukur",
            "lat": 24.9270124,
            "long": 89.4802072
        },
        {
            "name": "Kishorganj",
            "lat": 24.4264386,
            "long": 90.78870970000003
        },
        {
            "name": "Nabharon",
            "lat": 23.0556703,
            "long": 88.99393559999999
        },
        {
            "name": "Mymensingh",
            "lat": 24.7534236,
            "long": 90.4102643
        },
        {
            "name": "Muladhuli",
            "lat": 24.1647876,
            "long": 89.1471949
        },
        {
            "name": "Kuptola",
            "lat": 25.3946372,
            "long": 89.52019569999999
        },
        {
            "name": "Jayrampur",
            "lat": 23.5707189,
            "long": 88.8099532
        },
        {
            "name": "Imambari",
            "lat": 23.7919847,
            "long": 91.17301420000001
        },
        {
            "name": "Satair",
            "lat": 23.4343199,
            "long": 89.66515199999998
        },
        {
            "name": "Narsingdi",
            "lat": 23.9310429,
            "long": 90.7210518
        },
        {
            "name": "Goalanda_Ghat",
            "lat": 23.7643463,
            "long": 89.78270889999999
        },
        {
            "name": "Borashi",
            "lat": 22.9949121,
            "long": 89.84263320000002
        },
        {
            "name": "Shyamgonj",
            "lat": 24.8381086,
            "long": 90.57944350000002
        },
        {
            "name": "Chatmohar",
            "lat": 24.1890094,
            "long": 89.2754876
        },
        {
            "name": "Sharishadi",
            "lat": 23.059704,
            "long": 91.33719209999998
        },
        {
            "name": "Modhu_Road",
            "lat": 23.2443725,
            "long": 90.7562274
        },
        {
            "name": "Alamdanga",
            "lat": 23.7614404,
            "long": 88.9364668
        },
        {
            "name": "Montola",
            "lat": 24.0685584,
            "long": 91.34461069999998
        },
        {
            "name": "Rajshahi University",
            "lat": 24.3755607,
            "long": 88.6432317
        },
        {
            "name": "Chowdhurani",
            "lat": 25.6073447,
            "long": 89.42041490000003
        },
        {
            "name": "Gunabati",
            "lat": 23.0876059,
            "long": 91.29735340000002
        },
        {
            "name": "Barkhata",
            "lat": 26.2023961,
            "long": 89.11137559999997
        },
        {
            "name": "Bhuapur",
            "lat": 24.4672854,
            "long": 89.86711050000002
        },
        {
            "name": "Birampur",
            "lat": 25.397956,
            "long": 88.99422099999998
        },
        {
            "name": "Netrakona",
            "lat": 24.8889241,
            "long": 90.7207181
        },
        {
            "name": "Mirzapur",
            "lat": 24.1055474,
            "long": 90.101733
        },
        {
            "name": "Quasba",
            "lat": 23.740298,
            "long": 91.15559050000002
        },
        {
            "name": "Azim Nagar",
            "lat": 24.2065322,
            "long": 89.0059538
        },
        {
            "name": "Pakshi",
            "lat": 24.0708407,
            "long": 89.04070100000001
        },
        {
            "name": "Gouripur_Myn",
            "lat": 24.7638258,
            "long": 90.56554110000002
        },
        {
            "name": "Dewanganj_Bazar",
            "lat": 25.1569376,
            "long": 89.75630519999999
        },
        {
            "name": "Kushtia Court",
            "lat": 23.9071914,
            "long": 89.1282971
        },
        {
            "name": "Joypurhat",
            "lat": 25.0989627,
            "long": 89.02603470000003
        },
        {
            "name": "Melandah_Bazar",
            "lat": 24.9782916,
            "long": 89.85357069999998
        },
        {
            "name": "Jamalpur_Court",
            "lat": 24.9445775,
            "long": 89.91395610000001
        },
        {
            "name": "Sarishabari",
            "lat": 24.7608671,
            "long": 89.8399612
        },
        {
            "name": "Kalia_Haripur",
            "lat": 24.4111426,
            "long": 89.68024179999998
        },
        {
            "name": "Salop",
            "lat": 24.3162839,
            "long": 89.6123299
        },
        {
            "name": "Dhopakhola",
            "lat": 23.1380925,
            "long": 89.16135750000001
        },
        {
            "name": "Rupdia",
            "lat": 23.1253219,
            "long": 89.28667619999999
        },
        {
            "name": "Jashore",
            "lat": 23.1539798,
            "long": 89.208684
        },
        {
            "name": "Darshana_Halt",
            "lat": 23.5291986,
            "long": 88.80990170000001
        },
        {
            "name": "Gadkhali",
            "lat": 23.0687894,
            "long": 89.04830290000001
        },
        {
            "name": "Hi_Tech City",
            "lat": 24.0628369,
            "long": 90.2202845
        },
        {
            "name": "Sreepur",
            "lat": 24.1989808,
            "long": 90.47958410000001
        },
        {
            "name": "Panchbibi",
            "lat": 25.1885189,
            "long": 89.02156609999997
        },
        {
            "name": "Bogura",
            "lat": 24.8486322,
            "long": 89.36664250000001
        },
        {
            "name": "Pahartali",
            "lat": 22.3543097,
            "long": 91.79539699999998
        },
        {
            "name": "Lolitnagar",
            "lat": 24.5625788,
            "long": 88.435136
        },
        {
            "name": "Sirajganjraipur",
            "lat": 24.4389014,
            "long": 89.70148619999998
        },
        {
            "name": "Belgachi",
            "lat": 23.7808844,
            "long": 89.54111269999999
        },
        {
            "name": "Ramdia",
            "lat": 23.7072893,
            "long": 89.5245554
        },
        {
            "name": "Naldanga",
            "lat": 25.4817554,
            "long": 89.4740617
        },
        {
            "name": "Biral",
            "lat": 25.6351302,
            "long": 88.53918069999997
        },
        {
            "name": "Setabganj",
            "lat": 25.8006238,
            "long": 88.45932599999998
        },
        {
            "name": "Tushbandar",
            "lat": 25.9675194,
            "long": 89.20226359999998
        },
        {
            "name": "Mashakhali",
            "lat": 24.3853662,
            "long": 90.5357884
        },
        {
            "name": "Bhatiapara",
            "lat": 23.2128444,
            "long": 89.69944829999997
        },
        {
            "name": "Chapta",
            "lat": 23.1978849,
            "long": 89.75205340000002
        },
        {
            "name": "Badherhat",
            "lat": 23.8975023,
            "long": 89.6369603
        },
        {
            "name": "Dinajpur",
            "lat": 25.6249622,
            "long": 88.63245130000001
        },
        {
            "name": "Teesta Junction",
            "lat": 25.8086256,
            "long": 89.44070310000001
        },
        {
            "name": "Satpur",
            "lat": 24.9165175,
            "long": 91.70260999999999
        },
        {
            "name": "Basantapur",
            "lat": 23.6616969,
            "long": 89.71889479999999
        },
        {
            "name": "Natherpetua",
            "lat": 23.1131734,
            "long": 91.11548140000002
        },
        {
            "name": "Machpara",
            "lat": 23.8044166,
            "long": 89.35744499999998
        },
        {
            "name": "Badarganj",
            "lat": 25.6720243,
            "long": 89.05806339999998
        },
        {
            "name": "Atharabari",
            "lat": 24.6417318,
            "long": 90.71193340000002
        },
        {
            "name": "B Sirajul Islam",
            "lat": 26.3300208,
            "long": 88.54053549999998
        },
        {
            "name": "Tangail",
            "lat": 24.2738305,
            "long": 89.9378275
        },
        {
            "name": "Shundarpur",
            "lat": 23.4159326,
            "long": 89.08234329999999
        },
        {
            "name": "Baramchal",
            "lat": 24.5875611,
            "long": 91.97894939999998
        },
        {
            "name": "Bajitpur",
            "lat": 24.1996937,
            "long": 90.91293969999998
        },
        {
            "name": "Khoksha",
            "lat": 23.8306912,
            "long": 89.30286710000001
        },
        {
            "name": "Bhatiary",
            "lat": 22.4298645,
            "long": 91.74905130000002
        },
        {
            "name": "Kamarpara",
            "lat": 25.4403018,
            "long": 89.49594159999998
        },
        {
            "name": "Kushtia",
            "lat": 23.9026149,
            "long": 89.14568000000003
        },
        {
            "name": "Choraikal",
            "lat": 23.8778321,
            "long": 89.20489400000002
        },
        {
            "name": "Dilpashar",
            "lat": 24.2415719,
            "long": 89.4519584
        },
        {
            "name": "Chitoshi_Road",
            "lat": 23.2355839,
            "long": 91.0293567
        },
        {
            "name": "Khila",
            "lat": 23.1711185,
            "long": 91.12872340000001
        },
        {
            "name": "Nangolkot",
            "lat": 23.1676996,
            "long": 91.19857029999997
        },
        {
            "name": "Laksam",
            "lat": 23.2549009,
            "long": 91.12396949999999
        },
        {
            "name": "Aditmari",
            "lat": 25.9242967,
            "long": 89.34883309999998
        },
        {
            "name": "Sreemangal",
            "lat": 24.306581,
            "long": 91.73503090000003
        },
        {
            "name": "Arani",
            "lat": 24.2897978,
            "long": 88.8826271
        },
        {
            "name": "Amnura Bypass",
            "lat": 24.6149588,
            "long": 88.3954548
        },
        {
            "name": "Amnura",
            "lat": 24.627231,
            "long": 88.3990141
        },
        {
            "name": "Pangsha",
            "lat": 23.7860568,
            "long": 89.41715060000001
        },
        {
            "name": "Birkutsha",
            "lat": 24.5592898,
            "long": 88.96445540000002
        },
        {
            "name": "Ghorakhali",
            "lat": 23.4875383,
            "long": 89.63776769999998
        },
        {
            "name": "Lalmonirhat",
            "lat": 25.9116612,
            "long": 89.445449
        },
        {
            "name": "Bonar_Para",
            "lat": 25.1645684,
            "long": 89.52292410000001
        },
        {
            "name": "Noakhali",
            "lat": 22.8276881,
            "long": 91.10147860000001
        },
        {
            "name": "Fenchuganj",
            "lat": 24.6976624,
            "long": 91.94338540000001
        },
        {
            "name": "Dashuria",
            "lat": 24.112777,
            "long": 89.13046910000003
        },
        {
            "name": "Ishwardi Bypass",
            "lat": 24.1551615,
            "long": 89.0576981
        },
        {
            "name": "Ishwardi",
            "lat": 24.1302582,
            "long": 89.06298420000002
        },
        {
            "name": "Shashidal",
            "lat": 23.6393761,
            "long": 91.1467892
        },
        {
            "name": "Gachihata",
            "lat": 24.3419428,
            "long": 90.82448019999998
        },
        {
            "name": "Tilagaon",
            "lat": 24.4395678,
            "long": 91.9549361
        },
        {
            "name": "Gafargaon",
            "lat": 24.4535849,
            "long": 90.54768960000001
        },
        {
            "name": "Hajiganj",
            "lat": 23.2451262,
            "long": 90.94331360000001
        },
        {
            "name": "Jashore_Cantonment",
            "lat": 23.1889967,
            "long": 89.18377700000002
        },
        {
            "name": "Islampur_Bazar",
            "lat": 25.0777562,
            "long": 89.7914915
        },
        {
            "name": "Srinidhi",
            "lat": 24.0057046,
            "long": 90.90221250000002
        },
        {
            "name": "Poradaha",
            "lat": 23.8640974,
            "long": 89.0316335
        },
        {
            "name": "Baraiyadhala",
            "lat": 22.6801965,
            "long": 91.63304950000003
        },
        {
            "name": "Korotia",
            "lat": 24.2290921,
            "long": 89.9866115
        },
        {
            "name": "Shahtali",
            "lat": 23.2407608,
            "long": 90.72482109999999
        },
        {
            "name": "Sylhet",
            "lat": 24.8816901,
            "long": 91.86795310000002
        },
        {
            "name": "Lahiri Mohanpur",
            "lat": 24.2610514,
            "long": 89.4997718
        },
        {
            "name": "Chandpur_Court",
            "lat": 23.2255226,
            "long": 90.6550317
        },
        {
            "name": "Chuadanga",
            "lat": 23.6397539,
            "long": 88.85649649999999
        },
        {
            "name": "Nayapara",
            "lat": 24.1807757,
            "long": 91.35671150000002
        },
        {
            "name": "Barobazar",
            "lat": 23.3061533,
            "long": 89.1500868
        },
        {
            "name": "Chinky Astana",
            "lat": 22.8848905,
            "long": 91.53890030000002
        },
        {
            "name": "Harashpur",
            "lat": 24.0165679,
            "long": 91.31006250000002
        },
        {
            "name": "Majhgram",
            "lat": 24.1628709,
            "long": 89.0940737
        },
        {
            "name": "Mominpur",
            "lat": 23.6842715,
            "long": 88.87896030000002
        },
        {
            "name": "Bidyaganj",
            "lat": 24.8241419,
            "long": 90.25941039999998
        },
        {
            "name": "Benapole",
            "lat": 23.0430566,
            "long": 88.90279520000001
        },
        {
            "name": "Rohanpur",
            "lat": 24.8204541,
            "long": 88.3194552
        },
        {
            "name": "Madhnagar",
            "lat": 24.536171,
            "long": 88.96196370000001
        },
        {
            "name": "Bamondanga",
            "lat": 25.5337316,
            "long": 89.44547879999999
        },
        {
            "name": "Madhukhali",
            "lat": 23.5467668,
            "long": 89.6309152
        },
        {
            "name": "Jamalpur_Town",
            "lat": 24.9151803,
            "long": 89.95389979999999
        },
        {
            "name": "Hasanpur",
            "lat": 23.1353378,
            "long": 91.23711100000003
        },
        {
            "name": "Dhaka",
            "lat": 23.7305591,
            "long": 90.4270431
        },
        {
            "name": "Methikanda",
            "lat": 23.9927346,
            "long": 90.86692640000001
        },
        {
            "name": "Nandina",
            "lat": 24.8674472,
            "long": 90.03587720000002
        },
        {
            "name": "Altafnagar",
            "lat": 24.8187894,
            "long": 89.12890010000001
        },
        {
            "name": "Bipulashar",
            "lat": 23.0772059,
            "long": 91.1080179
        },
        {
            "name": "Basudebpur",
            "lat": 24.4701349,
            "long": 88.96304939999999
        },
        {
            "name": "Shahaji_Bazar",
            "lat": 24.2527769,
            "long": 91.38190550000002
        },
        {
            "name": "Netrakona_Court",
            "lat": 24.8874326,
            "long": 90.73122649999999
        },
        {
            "name": "Thakrokona",
            "lat": 24.9073087,
            "long": 90.8178216
        },
        {
            "name": "Domar",
            "lat": 26.1046564,
            "long": 88.819887
        },
        {
            "name": "Taltola Hat",
            "lat": 23.0124814,
            "long": 89.41247929999997
        },
        {
            "name": "Raghabpur",
            "lat": 23.9953298,
            "long": 89.3042221
        },
        {
            "name": "Goalanda_Bazar",
            "lat": 23.7239586,
            "long": 89.76405840000001
        },
        {
            "name": "Khankhanapur",
            "lat": 23.7012452,
            "long": 89.71357389999997
        },
        {
            "name": "Dewanhat",
            "lat": 22.3410745,
            "long": 91.81374140000003
        },
        {
            "name": "Bheramara",
            "lat": 24.0232415,
            "long": 88.99202050000002
        },
        {
            "name": "Hili",
            "lat": 25.2775125,
            "long": 89.00699070000002
        },
        {
            "name": "Kahaloo",
            "lat": 24.832929,
            "long": 89.2666744
        },
        {
            "name": "Kalukhali",
            "lat": 23.7682753,
            "long": 89.48043089999999
        },
        {
            "name": "Chirirbandar",
            "lat": 25.6457864,
            "long": 88.77585859999999
        },
        {
            "name": "Kholahati",
            "lat": 25.6561931,
            "long": 88.97499699999997
        },
        {
            "name": "Saidpur",
            "lat": 25.7925262,
            "long": 88.89002679999999
        },
        {
            "name": "Burimari",
            "lat": 26.3960798,
            "long": 88.93560559999997
        },
        {
            "name": "Shiromoni",
            "lat": 22.9127928,
            "long": 89.50077970000001
        },
        {
            "name": "Annadanagar",
            "lat": 25.7338284,
            "long": 89.40941350000003
        },
        {
            "name": "Bhomradah",
            "lat": 25.9333086,
            "long": 88.3670712
        },
        {
            "name": "Narundi",
            "lat": 24.8651086,
            "long": 90.1199183
        },
        {
            "name": "Halsa",
            "lat": 23.8153735,
            "long": 88.99170670000001
        },
        {
            "name": "Jagati",
            "lat": 23.8907792,
            "long": 89.09873859999999
        },
        {
            "name": "Arikhola",
            "lat": 23.9286805,
            "long": 90.5537013
        },
        {
            "name": "Bhanga",
            "lat": 23.4004979,
            "long": 89.98472620000001
        },
        {
            "name": "Jharia_Jhanjail",
            "lat": 25.0043672,
            "long": 90.64053059999998
        },
        {
            "name": "Mandabag",
            "lat": 23.6888515,
            "long": 91.15200290000001
        },
        {
            "name": "Dublia",
            "lat": 23.9777306,
            "long": 89.36814930000003
        },
        {
            "name": "Sadar Rasulpur",
            "lat": 23.5190984,
            "long": 91.16853329999998
        },
        {
            "name": "Kurigram",
            "lat": 25.8075624,
            "long": 89.6212966
        },
        {
            "name": "Pachuria",
            "lat": 23.7479524,
            "long": 89.71093300000001
        },
        {
            "name": "Rajshahi",
            "lat": 24.3752768,
            "long": 88.6087564
        },
        {
            "name": "Rajshahi_Court",
            "lat": 24.3790601,
            "long": 88.5656214
        },
        {
            "name": "Kakonhat",
            "lat": 24.5072917,
            "long": 88.4713297
        },
        {
            "name": "Baharpur",
            "lat": 23.6862665,
            "long": 89.5614347
        },
        {
            "name": "Santahar",
            "lat": 24.8060113,
            "long": 88.98578600000002
        },
        {
            "name": "Kismat",
            "lat": 26.2208009,
            "long": 88.44597759999999
        },
        {
            "name": "Singia",
            "lat": 23.1212923,
            "long": 89.3468057
        },
        {
            "name": "Cumilla",
            "lat": 23.4636219,
            "long": 91.16658740000003
        },
        {
            "name": "Kotchandpur",
            "lat": 23.415689,
            "long": 89.01341109999998
        },
        {
            "name": "Nilphamari",
            "lat": 25.9490384,
            "long": 88.83585690000001
        },
        {
            "name": "Ullapara",
            "lat": 24.2901921,
            "long": 89.5701382
        },
        {
            "name": "Chatiyangram",
            "lat": 24.8438568,
            "long": 88.99446130000001
        },
        {
            "name": "Nasharatpur",
            "lat": 24.8136912,
            "long": 89.0761635
        },
        {
            "name": "Manikkhali",
            "lat": 24.2979191,
            "long": 90.8464118
        },
        {
            "name": "Harian",
            "lat": 24.3756645,
            "long": 88.6859662
        },
        {
            "name": "Boira",
            "lat": 24.7066989,
            "long": 89.82687520000002
        },
        {
            "name": "Boalmari_Bazar",
            "lat": 23.3898395,
            "long": 89.68771679999998
        },
        {
            "name": "Kashinathpur",
            "lat": 23.9703821,
            "long": 89.58971050000002
        },
        {
            "name": "Afzalabad",
            "lat": 24.9236661,
            "long": 91.68850259999999
        },
        {
            "name": "Velurpara",
            "lat": 24.9817794,
            "long": 89.50063440000002
        },
        {
            "name": "Pirganj",
            "lat": 25.8592453,
            "long": 88.35783090000001
        },
        {
            "name": "Jamtail",
            "lat": 24.3614269,
            "long": 89.660214
        },
        {
            "name": "Raninagar",
            "lat": 24.7414493,
            "long": 88.96961759999999
        },
        {
            "name": "Shaistaganj",
            "lat": 24.2783324,
            "long": 91.44980950000001
        },
        {
            "name": "Hatibandha",
            "lat": 26.1283272,
            "long": 89.1386086
        },
        {
            "name": "Hemnagar",
            "lat": 24.5680134,
            "long": 89.85977250000002
        },
        {
            "name": "Moishadi",
            "lat": 23.2347991,
            "long": 90.69772949999998
        },
        {
            "name": "Laskarpur",
            "lat": 24.2764244,
            "long": 91.48559399999999
        },
        {
            "name": "Mahimaganj",
            "lat": 25.1043726,
            "long": 89.4940431
        },
        {
            "name": "Manu",
            "lat": 24.4259961,
            "long": 91.93929530000003
        },
        {
            "name": "Boral_Bridge",
            "lat": 24.2149232,
            "long": 89.3809789
        },
        {
            "name": "Feni",
            "lat": 23.0133271,
            "long": 91.40345300000001
        },
        {
            "name": "Rajapur",
            "lat": 23.5805479,
            "long": 91.15232420000001
        },
        {
            "name": "Thakurgaon_Road",
            "lat": 26.0391906,
            "long": 88.42702170000001
        },
        {
            "name": "Daulatpur",
            "lat": 22.8765736,
            "long": 89.52211349999999
        },
        {
            "name": "Mubarakganj",
            "lat": 23.4004214,
            "long": 89.12440040000001
        },
        {
            "name": "Hironpur",
            "lat": 24.8487443,
            "long": 90.64544210000003
        },
        {
            "name": "Purbadhala",
            "lat": 24.9414737,
            "long": 90.60194239999998
        },
        {
            "name": "Rangpur",
            "lat": 25.7284001,
            "long": 89.2640212
        },
        {
            "name": "Chengutia",
            "lat": 23.0757513,
            "long": 89.36567580000002
        },
        {
            "name": "Sirajganj_Bazar",
            "lat": 24.4510248,
            "long": 89.70229089999998
        },
        {
            "name": "Barabkunda",
            "lat": 22.5788404,
            "long": 91.68199069999997
        },
        {
            "name": "Bonomalipur",
            "lat": 23.29863,
            "long": 89.74297410000003
        },
        {
            "name": "Bajra",
            "lat": 22.992085,
            "long": 91.10062640000001
        },
        {
            "name": "Shalmara",
            "lat": 25.0748254,
            "long": 89.4935539
        },
        {
            "name": "Bhanugach",
            "lat": 24.3519238,
            "long": 91.84150119999998
        },
        {
            "name": "Kaoraid",
            "lat": 24.3082926,
            "long": 90.51255730000003
        },
        {
            "name": "Bhairab_Bazar",
            "lat": 24.0502777,
            "long": 90.97788409999998
        },
        {
            "name": "Sayed Ahmed College",
            "lat": 24.9444128,
            "long": 89.49197140000001
        },
        {
            "name": "Rajbari",
            "lat": 23.7627538,
            "long": 89.64533039999998
        },
        {
            "name": "Khajanchigaon",
            "lat": 24.8816901,
            "long": 91.86795310000002
        },
        {
            "name": "Pukuria",
            "lat": 23.4425915,
            "long": 89.957605
        },
        {
            "name": "Panchpir Mazar",
            "lat": 24.8272223,
            "long": 89.2210852
        },
        {
            "name": "Brahmanbaria",
            "lat": 23.9667661,
            "long": 91.10900729999997
        },
        {
            "name": "Bejerdanga",
            "lat": 22.9783663,
            "long": 89.44681530000003
        },
        {
            "name": "Sathia_Rajapur",
            "lat": 23.972801,
            "long": 89.48663060000001
        },
        {
            "name": "Adv. Motiur Rahman",
            "lat": 24.6602257,
            "long": 89.8176034
        },
        {
            "name": "Pabna",
            "lat": 24.0160797,
            "long": 89.25626899999997
        },
        {
            "name": "Mahendranagar",
            "lat": 25.8773245,
            "long": 89.44812480000002
        },
        {
            "name": "Rajarhat",
            "lat": 25.7980176,
            "long": 89.54602410000001
        },
        {
            "name": "Dhaka_Cantonment",
            "lat": 23.8155745,
            "long": 90.4103737
        },
        {
            "name": "Barhatta",
            "lat": 24.8977274,
            "long": 90.88135890000001
        },
        {
            "name": "Ruhia",
            "lat": 26.1581683,
            "long": 88.39754269999997
        },
        {
            "name": "Kulaura",
            "lat": 24.5225492,
            "long": 92.03658630000001
        },
        {
            "name": "Akkelpur",
            "lat": 24.9645801,
            "long": 89.01576879999999
        },
        {
            "name": "Joydebpur",
            "lat": 23.9977644,
            "long": 90.4199755
        },
        {
            "name": "Pubail",
            "lat": 23.936378,
            "long": 90.47840200000002
        },
        {
            "name": "Gaibandha",
            "lat": 25.3323414,
            "long": 89.54271390000002
        },
        {
            "name": "Shahid Borhannagar",
            "lat": 26.0743791,
            "long": 89.1383902
        },
        {
            "name": "Mohishakhola",
            "lat": 24.272785,
            "long": 89.5307003
        },
        {
            "name": "Ansarbaria",
            "lat": 23.4922066,
            "long": 88.8857557
        },
        {
            "name": "Sonatola",
            "lat": 25.0440532,
            "long": 89.49720489999999
        },
        {
            "name": "Narayanganj",
            "lat": 23.6180402,
            "long": 90.5054526
        }
    ]
}